[{"name":"Bhaisipati","latitude":27.65311,"longitude":85.302252,"elevation":1347,"unit":"%","series_id":528,"parameter_name":"Relative Humidity Inst","parameter_code":"RH_I","series_name":"Relative Humidity Inst","data":{"datetime":"2024-05-11T14:35:00+00:00","value":80.19}},{"name":"Dang","latitude":27.9914,"longitude":82.5346,"elevation":684,"unit":"%","series_id":719,"parameter_name":"Relative Humidity Inst","parameter_code":"RH_I","series_name":"Relative Humidity Inst","data":{"datetime":"2024-05-11T14:36:00+00:00","value":70.8}},{"name":"Dhankuta","latitude":26.98066,"longitude":87.34392,"elevation":1200,"unit":"%","series_id":1522,"parameter_name":"Relative Humidity Inst","parameter_code":"RH_I","series_name":"Relative Humidity Inst","data":{"datetime":"2024-05-11T14:38:00+00:00","value":85.9}},{"name":"Dhulikhel","latitude":27.608483,"longitude":85.547803,"elevation":1598,"unit":"%","series_id":1259,"parameter_name":"Relative Humidity Inst","parameter_code":"RH_I","series_name":"Relative Humidity Inst","data":null},{"name":"GBS, Pkr","latitude":28.25838,"longitude":83.968964,"elevation":978,"unit":"%","series_id":579,"parameter_name":"Relative Humidity Inst","parameter_code":"RH_I","series_name":"Relative Humidity Inst","data":{"datetime":"2024-05-11T14:35:00+00:00","value":93.19}},{"name":"Lumbini","latitude":27.50359,"longitude":83.282186,"elevation":97,"unit":"%","series_id":145,"parameter_name":"Relative Humidity Inst","parameter_code":"RH_I","series_name":"Relative Humidity Inst","data":null},{"name":"Nepalgunj","latitude":28.05275,"longitude":81.6222,"elevation":151,"unit":"%","series_id":659,"parameter_name":"Relative Humidity Inst","parameter_code":"RH_I","series_name":"Relative Humidity Inst","data":{"datetime":"2024-05-11T14:37:00+00:00","value":84.8}},{"name":"PU Pkr","latitude":28.143373,"longitude":84.085547,"elevation":664,"unit":"%","series_id":556,"parameter_name":"Relative Humidity Inst","parameter_code":"RH_I","series_name":"Relative Humidity Inst","data":null},{"name":"Ratnapark","latitude":27.707014,"longitude":85.31541,"elevation":1317,"unit":"%","series_id":40,"parameter_name":"Relative Humidity Inst","parameter_code":"RH_I","series_name":"Relative Humidity Inst","data":null},{"name":"Shankapark","latitude":27.732825,"longitude":85.342826,"elevation":1339,"unit":"%","series_id":330,"parameter_name":"Relative Humidity Inst","parameter_code":"RH_I","series_name":"Relative Humidity Inst","data":{"datetime":"2024-05-11T14:43:00+00:00","value":75.4}},{"name":"Sauraha","latitude":27.573483,"longitude":84.498578,"elevation":195,"unit":"%","series_id":200,"parameter_name":"Relative Humidity Inst","parameter_code":"RH_I","series_name":"Relative Humidity Inst","data":null},{"name":"Simara","latitude":27.156708,"longitude":84.997761,"elevation":128,"unit":"%","series_id":625,"parameter_name":"Relative Humidity Inst","parameter_code":"RH_I","series_name":"Relative Humidity Inst","data":{"datetime":"2024-05-11T14:34:00+00:00","value":69.09}},{"name":"DHM, Pkr","latitude":28.205549,"longitude":83.97368,"elevation":823,"unit":"%","series_id":602,"parameter_name":"Relative Humidity Inst","parameter_code":"RH_I","series_name":"Relative Humidity Inst","data":{"datetime":"2024-05-11T14:42:00+00:00","value":96.69}},{"name":"Damak","latitude":26.669363,"longitude":87.703262,"elevation":136,"unit":"%","series_id":1550,"parameter_name":"Relative Humidity Inst","parameter_code":"RH_I","series_name":"Relative Humidity Inst","data":null},{"name":"Janakpur","latitude":26.739805,"longitude":85.92854,"elevation":76,"unit":"%","series_id":1631,"parameter_name":"Relative Humidity Inst","parameter_code":"RH_I","series_name":"Relative Humidity Inst","data":null},{"name":"Dhangadhi","latitude":28.704133,"longitude":80.5945,"elevation":178,"unit":"%","series_id":1712,"parameter_name":"Relative Humidity Inst","parameter_code":"RH_I","series_name":"Relative Humidity Inst","data":null},{"name":"Hetauda","latitude":27.4226747,"longitude":85.0344161,"elevation":458,"unit":"%","series_id":1657,"parameter_name":"Relative Humidity Inst","parameter_code":"RH_I","series_name":"Relative Humidity Inst","data":null},{"name":"Bhimdatta (Mahendranagar)","latitude":28.965051,"longitude":80.182925,"elevation":217,"unit":"%","series_id":1738,"parameter_name":"Relative Humidity Inst","parameter_code":"RH_I","series_name":"Relative Humidity Inst","data":{"datetime":"2024-05-11T14:35:00+00:00","value":72.3}},{"name":"Biratnagar","latitude":26.4450921,"longitude":87.2750912,"elevation":71,"unit":"%","series_id":1607,"parameter_name":"Relative Humidity Inst","parameter_code":"RH_I","series_name":"Relative Humidity Inst","data":null},{"name":"Jhumka","latitude":26.664451,"longitude":87.195171,"elevation":100,"unit":"%","series_id":685,"parameter_name":"Relative Humidity Inst","parameter_code":"RH_I","series_name":"Relative Humidity Inst","data":null},{"name":"Surkhet","latitude":28.602925,"longitude":81.621024,"elevation":729,"unit":"%","series_id":1578,"parameter_name":"Relative Humidity Inst","parameter_code":"RH_I","series_name":"Relative Humidity Inst","data":{"datetime":"2024-05-11T14:23:00+00:00","value":89.3}},{"name":"Rara","latitude":29.508301,"longitude":82.093788,"elevation":3121,"unit":"%","series_id":1770,"parameter_name":"Relative Humidity Inst","parameter_code":"RH_I","series_name":"Relative Humidity Inst","data":{"datetime":"2024-05-11T14:44:00+00:00","value":91.69}},{"name":"Pulchowk","latitude":27.682581,"longitude":85.318841,"elevation":1305,"unit":"%","series_id":103,"parameter_name":"Relative Humidity Inst","parameter_code":"RH_I","series_name":"Relative Humidity Inst","data":null},{"name":"TU Kirtipur","latitude":27.681719,"longitude":85.289313,"elevation":1314,"unit":"%","series_id":483,"parameter_name":"Relative Humidity Inst","parameter_code":"RH_I","series_name":"Relative Humidity Inst","data":null},{"name":"Bhaktapur ","latitude":27.673762,"longitude":85.417528,"elevation":1327,"unit":"%","series_id":506,"parameter_name":"Relative Humidity Inst","parameter_code":"RH_I","series_name":"Relative Humidity Inst","data":{"datetime":"2024-05-11T14:43:00+00:00","value":81.9}},{"name":"Bharatpur","latitude":27.672503,"longitude":84.438393,"elevation":213,"unit":"%","series_id":1686,"parameter_name":"Relative Humidity Inst","parameter_code":"RH_I","series_name":"Relative Humidity Inst","data":{"datetime":"2024-05-11T14:47:00+00:00","value":63}},{"name":"Khumaltar","latitude":27.64665,"longitude":85.3234,"elevation":null,"unit":"%","series_id":2485,"parameter_name":"Relative Humidity Inst","parameter_code":"RH_I","series_name":"Relative Humidity Inst","data":{"datetime":"2024-05-11T03:17:00+00:00","value":67.69}}]