[{"name":"Bhaisipati","latitude":27.65311,"longitude":85.302252,"elevation":1347,"unit":"°","series_id":527,"parameter_name":"Wind direction Inst","parameter_code":"WD_I","series_name":"Wind direction Inst","data":{"datetime":"2024-05-11T14:35:00+00:00","value":0}},{"name":"Dang","latitude":27.9914,"longitude":82.5346,"elevation":684,"unit":"°","series_id":718,"parameter_name":"Wind direction Inst","parameter_code":"WD_I","series_name":"Wind direction Inst","data":{"datetime":"2024-05-11T14:36:00+00:00","value":252.19}},{"name":"Dhankuta","latitude":26.98066,"longitude":87.34392,"elevation":1200,"unit":"°C","series_id":1521,"parameter_name":"Wind direction Inst","parameter_code":"WD_I","series_name":"Wind direction Inst","data":{"datetime":"2024-05-11T14:38:00+00:00","value":264.39}},{"name":"Dhulikhel","latitude":27.608483,"longitude":85.547803,"elevation":1598,"unit":"m/s","series_id":1258,"parameter_name":"Wind direction Inst","parameter_code":"WD_I","series_name":"Wind direction Inst","data":null},{"name":"GBS, Pkr","latitude":28.25838,"longitude":83.968964,"elevation":978,"unit":"°","series_id":578,"parameter_name":"Wind direction Inst","parameter_code":"WD_I","series_name":"Wind direction Inst","data":{"datetime":"2024-05-11T14:35:00+00:00","value":297.1}},{"name":"Lumbini","latitude":27.50359,"longitude":83.282186,"elevation":97,"unit":"°","series_id":144,"parameter_name":"Wind direction Inst","parameter_code":"WD_I","series_name":"Wind direction Inst","data":null},{"name":"Nepalgunj","latitude":28.05275,"longitude":81.6222,"elevation":151,"unit":"°","series_id":658,"parameter_name":"Wind direction Inst","parameter_code":"WD_I","series_name":"Wind direction Inst","data":{"datetime":"2024-05-11T14:37:00+00:00","value":344.79}},{"name":"PU Pkr","latitude":28.143373,"longitude":84.085547,"elevation":664,"unit":"°","series_id":555,"parameter_name":"Wind direction Inst","parameter_code":"WD_I","series_name":"Wind direction Inst","data":null},{"name":"Ratnapark","latitude":27.707014,"longitude":85.31541,"elevation":1317,"unit":"°","series_id":237,"parameter_name":"Wind direction Inst","parameter_code":"WD_I","series_name":"Wind direction Inst","data":null},{"name":"Shankapark","latitude":27.732825,"longitude":85.342826,"elevation":1339,"unit":"°","series_id":329,"parameter_name":"Wind direction Inst","parameter_code":"WD_I","series_name":"Wind direction Inst","data":{"datetime":"2024-05-11T14:43:00+00:00","value":33.5}},{"name":"Sauraha","latitude":27.573483,"longitude":84.498578,"elevation":195,"unit":"°","series_id":199,"parameter_name":"Wind direction Inst","parameter_code":"WD_I","series_name":"Wind direction Inst","data":null},{"name":"Simara","latitude":27.156708,"longitude":84.997761,"elevation":128,"unit":"°","series_id":624,"parameter_name":"Wind direction Inst","parameter_code":"WD_I","series_name":"Wind direction Inst","data":{"datetime":"2024-05-11T14:34:00+00:00","value":21.7}},{"name":"DHM, Pkr","latitude":28.205549,"longitude":83.97368,"elevation":823,"unit":"°","series_id":601,"parameter_name":"Wind direction Inst","parameter_code":"WD_I","series_name":"Wind direction Inst","data":{"datetime":"2024-05-11T14:42:00+00:00","value":335.29}},{"name":"Damak","latitude":26.669363,"longitude":87.703262,"elevation":136,"unit":"°","series_id":1549,"parameter_name":"Wind direction Inst","parameter_code":"WD_I","series_name":"Wind direction Inst","data":null},{"name":"Janakpur","latitude":26.739805,"longitude":85.92854,"elevation":76,"unit":"°","series_id":1634,"parameter_name":"Wind direction Inst","parameter_code":"WD_I","series_name":"Wind direction Inst","data":null},{"name":"Dhangadhi","latitude":28.704133,"longitude":80.5945,"elevation":178,"unit":"°","series_id":1715,"parameter_name":"Wind direction Inst","parameter_code":"WD_I","series_name":"Wind direction Inst","data":null},{"name":"Hetauda","latitude":27.4226747,"longitude":85.0344161,"elevation":458,"unit":"°","series_id":1661,"parameter_name":"Wind direction Inst","parameter_code":"WD_I","series_name":"Wind direction Inst","data":null},{"name":"Bhimdatta (Mahendranagar)","latitude":28.965051,"longitude":80.182925,"elevation":217,"unit":"°","series_id":1742,"parameter_name":"Wind direction Inst","parameter_code":"WD_I","series_name":"Wind direction Inst","data":{"datetime":"2024-05-11T14:35:00+00:00","value":0}},{"name":"Biratnagar","latitude":26.4450921,"longitude":87.2750912,"elevation":71,"unit":"°","series_id":1610,"parameter_name":"Wind direction Inst","parameter_code":"WD_I","series_name":"Wind direction Inst","data":null},{"name":"Jhumka","latitude":26.664451,"longitude":87.195171,"elevation":100,"unit":"°","series_id":683,"parameter_name":"Wind direction Inst","parameter_code":"WD_I","series_name":"Wind direction Inst","data":null},{"name":"Surkhet","latitude":28.602925,"longitude":81.621024,"elevation":729,"unit":"°","series_id":1577,"parameter_name":"Wind direction Inst","parameter_code":"WD_I","series_name":"Wind direction Inst","data":{"datetime":"2024-05-11T14:23:00+00:00","value":46.9}},{"name":"Rara","latitude":29.508301,"longitude":82.093788,"elevation":3121,"unit":"°","series_id":1773,"parameter_name":"Wind direction Inst","parameter_code":"WD_I","series_name":"Wind direction Inst","data":{"datetime":"2024-05-11T14:44:00+00:00","value":218.3}},{"name":"Pulchowk","latitude":27.682581,"longitude":85.318841,"elevation":1305,"unit":"°","series_id":102,"parameter_name":"Wind direction Inst","parameter_code":"WD_I","series_name":"Wind direction Inst","data":null},{"name":"TU Kirtipur","latitude":27.681719,"longitude":85.289313,"elevation":1314,"unit":"°","series_id":482,"parameter_name":"Wind direction Inst","parameter_code":"WD_I","series_name":"Wind direction Inst","data":null},{"name":"Bhaktapur ","latitude":27.673762,"longitude":85.417528,"elevation":1327,"unit":"°","series_id":505,"parameter_name":"Wind direction Inst","parameter_code":"WD_I","series_name":"Wind direction Inst","data":{"datetime":"2024-05-11T14:43:00+00:00","value":199.39}},{"name":"Bharatpur","latitude":27.672503,"longitude":84.438393,"elevation":213,"unit":"°","series_id":1689,"parameter_name":"Wind direction Inst","parameter_code":"WD_I","series_name":"Wind direction Inst","data":{"datetime":"2024-05-11T14:47:00+00:00","value":54.9}},{"name":"Khumaltar","latitude":27.64665,"longitude":85.3234,"elevation":null,"unit":"°","series_id":2492,"parameter_name":"Wind direction Inst","parameter_code":"WD_I","series_name":"Wind direction Inst","data":{"datetime":"2024-05-11T03:17:00+00:00","value":69.19}}]